[
  {
    "Nom": "Chez Jeannette",
    "Lundi": "8:00-2:00",
    "Mardi": "8:00-2:00",
    "Mercredi": "8:00-2:00",
    "Jeudi": "8:00-2:00",
    "Vendredi": "8:00-2:00",
    "Samedi": "8:00-2:00",
    "Dimanche": "9:00-2:00",
    "Photo": "Chez-Jeannette32.jpg (https://dl.airtable.com/jcKHGWN0QSGfwQnij1sC_Chez-Jeannette32.jpg)",
    "Adresse": "47, rue du Faubourg Saint-Denis, 75010 Paris",
    "Latitude": "48.8716675",
    "Longitude": "2.3513403",
    "Id": "1",
    "Vérifié": "checked"
  },
  {
    "Nom": "Le Comptoir Général",
    "Lundi": "18:00-2:00",
    "Mardi": "18:00-2:00",
    "Mercredi": "18:00-2:00",
    "Jeudi": "18:00-2:00",
    "Vendredi": "16:00-2:00",
    "Samedi": "14:00-2:00",
    "Dimanche": "14:00-2:00",
    "Photo": "Comptoir-général.jpg (https://dl.airtable.com/opRfVMaVRG2KVadaq2aY_Comptoir-g%C3%A9n%C3%A9ral.jpg)",
    "Adresse": "80, quai de Jemmapes, 75010 Paris",
    "Latitude": "48.8720829",
    "Longitude": "2.3630873",
    "Id": "2",
    "Vérifié": "checked"
  },
  {
    "Nom": "Bizz’Art",
    "Lundi": "",
    "Mardi": "",
    "Mercredi": "20:00-5:00",
    "Jeudi": "19:00-5:00",
    "Vendredi": "20:00-5:00",
    "Samedi": "20:00-5:00",
    "Dimanche": "16:00-21:00",
    "Photo": "rideauxsalle-bizzart-photo-olivier-bangoura-web.jpeg (https://dl.airtable.com/J72PafCaThqwf8aXK4nD_rideauxsalle-bizzart-photo-olivier-bangoura-web.jpeg)",
    "Adresse": "167, Quai de Valmy - Canal St Martin, 75010 Paris",
    "Latitude": "48.8790816",
    "Longitude": "2.3642437",
    "Id": "3",
    "Vérifié": "checked"
  },
  {
    "Nom": "Au Dixième",
    "Lundi": "8:00-2:00",
    "Mardi": "8:00-2:00",
    "Mercredi": "8:00-2:00",
    "Jeudi": "8:00-2:00",
    "Vendredi": "8:00-2:00",
    "Samedi": "8:00-2:00",
    "Dimanche": "8:00-2:00",
    "Photo": "au-dixieme.jpg (https://dl.airtable.com/5TIk7y38RIej2mlb97cq_au-dixieme.jpg)",
    "Adresse": "22, Rue de Mazagran, 75010 Paris",
    "Latitude": "48.8710917",
    "Longitude": "2.3501729",
    "Id": "4",
    "Vérifié": "checked"
  },
  {
    "Nom": "Au fût et à mesure",
    "Lundi": "17:00-0:00",
    "Mardi": "17:00-2:00",
    "Mercredi": "17:00-2:00",
    "Jeudi": "17:00-2:00",
    "Vendredi": "17:00-2:00",
    "Samedi": "17:00-2:00",
    "Dimanche": "",
    "Photo": "aufutetamesure.jpg (https://dl.airtable.com/5klkaStgRGqW0W3ffa3Q_aufutetamesure.jpg)",
    "Adresse": "2, rue d’Hauteville, 75010 Paris",
    "Latitude": "48.8707143",
    "Longitude": "2.3477146",
    "Id": "5",
    "Vérifié": "checked"
  },
  {
    "Nom": "Le Cinquante",
    "Lundi": "18:00-2:00",
    "Mardi": "18:00-2:00",
    "Mercredi": "18:00-2:00",
    "Jeudi": "18:00-2:00",
    "Vendredi": "18:00-2:00",
    "Samedi": "18:00-2:00",
    "Dimanche": "18:00-2:00",
    "Photo": "lecinquante.png (https://dl.airtable.com/fLMqjauDRmyqWJFE017W_lecinquante.png)",
    "Adresse": "50, rue de Lancry, 75010 Paris",
    "Latitude": "48.8719035",
    "Longitude": "2.3604903",
    "Id": "6",
    "Vérifié": "checked"
  },
  {
    "Nom": "UFO",
    "Lundi": "18:00-2:00",
    "Mardi": "18:00-2:00",
    "Mercredi": "18:00-2:00",
    "Jeudi": "18:00-2:00",
    "Vendredi": "18:00-2:00",
    "Samedi": "18:00-2:00",
    "Dimanche": "18:00-2:00",
    "Photo": "UFO_comptoir.jpg (https://dl.airtable.com/Wh98yRtSCa0LlQV9GUMn_UFO_comptoir.jpg)",
    "Adresse": "49 Rue Jean-Pierre Timbaud, 75011 Paris",
    "Latitude": "48.8719208",
    "Longitude": "2.3539242",
    "Id": "7",
    "Vérifié": "checked"
  },
  {
    "Nom": "La MaiZon",
    "Lundi": "",
    "Mardi": "18:00-2:00",
    "Mercredi": "18:00-2:00",
    "Jeudi": "18:00-2:00",
    "Vendredi": "18:00-5:00",
    "Samedi": "18:00-5:00",
    "Dimanche": "",
    "Photo": "lamaizon.png (https://dl.airtable.com/0nN7Cgn0QkKKk8zIHMeh_lamaizon.png)",
    "Adresse": "123 Rue Oberkampf, 75011 Paris",
    "Latitude": "48.8661295",
    "Longitude": "2.3768913",
    "Id": "8",
    "Vérifié": "checked"
  },
  {
    "Nom": "L'Escargot",
    "Lundi": "",
    "Mardi": "16:00-2:00",
    "Mercredi": "16:00-2:00",
    "Jeudi": "16:00-2:00",
    "Vendredi": "16:00-2:00",
    "Samedi": "16:00-2:00",
    "Dimanche": "",
    "Photo": "lescargot.jpg (https://dl.airtable.com/9rnbRobqT9mMWLg7nieB_lescargot.jpg)",
    "Adresse": "50 Rue de la Villette, 75019 Paris",
    "Latitude": "48.8770137",
    "Longitude": "2.3858283",
    "Id": "9",
    "Vérifié": "checked"
  },
  {
    "Nom": "Aux Folies",
    "Lundi": "7:00-2:00",
    "Mardi": "7:00-2:00",
    "Mercredi": "7:00-2:00",
    "Jeudi": "7:00-2:00",
    "Vendredi": "7:00-2:00",
    "Samedi": "7:00-2:00",
    "Dimanche": "7:00-2:00",
    "Photo": "auxfolies.jpg (https://dl.airtable.com/UCse9vkQLiETImOFwzlH_auxfolies.jpg)",
    "Adresse": "8 Rue de Belleville, 75020 Paris",
    "Latitude": "48.8722863",
    "Longitude": "2.3758575",
    "Id": "10",
    "Vérifié": "checked"
  },
  {
    "Nom": "Chez Pierrot",
    "Lundi": "18:00-2:00",
    "Mardi": "18:00-2:00",
    "Mercredi": "18:00-2:00",
    "Jeudi": "18:00-2:00",
    "Vendredi": "18:00-2:00",
    "Samedi": "18:00-2:00",
    "Dimanche": "",
    "Photo": "Chez-Pierrot-2ok.jpg (https://dl.airtable.com/WX68rVgqTevAHiYTvznQ_Chez-Pierrot-2ok.jpg)",
    "Adresse": "33 Rue de Lappe, 75011 Paris",
    "Latitude": "48.8723167",
    "Longitude": "2.3605366",
    "Id": "11",
    "Vérifié": "checked"
  },
  {
    "Nom": "Le Zorba",
    "Lundi": "5:00-2:00",
    "Mardi": "5:00-2:00",
    "Mercredi": "5:00-2:00",
    "Jeudi": "5:00-2:00",
    "Vendredi": "5:00-2:00",
    "Samedi": "7:00-2:00",
    "Dimanche": "7:00-2:00",
    "Photo": "Le-Zorba-paris.jpg (https://dl.airtable.com/tAIx6Z6WSnGQ8lv54utI_Le-Zorba-paris.jpg)",
    "Adresse": "137 rue du Faubourg du Temple, 75010 Paris",
    "Latitude": "48.871952",
    "Longitude": "2.3742457",
    "Id": "12",
    "Vérifié": "checked"
  },
  {
    "Nom": "Les Triplettes",
    "Lundi": "8:00-2:00",
    "Mardi": "8:00-2:00",
    "Mercredi": "8:00-2:00",
    "Jeudi": "8:00-2:00",
    "Vendredi": "8:00-2:00",
    "Samedi": "8:00-2:00",
    "Dimanche": "8:00-2:00",
    "Photo": "triplettes.jpg (https://dl.airtable.com/6xv5MA1PQzS1AaPNf3FP_triplettes.jpg)",
    "Adresse": "102 Boulevard de Belleville, 75020 Paris",
    "Latitude": "48.8705828",
    "Longitude": "2.3767883",
    "Id": "13",
    "Vérifié": "checked"
  },
  {
    "Nom": "Le Mecano",
    "Lundi": "9:00-2:00",
    "Mardi": "9:00-2:00",
    "Mercredi": "9:00-2:00",
    "Jeudi": "9:00-2:00",
    "Vendredi": "9:00-5:00",
    "Samedi": "9:00-5:00",
    "Dimanche": "10:00-2:00",
    "Photo": "le-mecano.jpg (https://dl.airtable.com/ywbHDavSLCqojRxZTjg5_le-mecano.jpg)",
    "Adresse": "99 Rue Oberkampf, 75011 Paris",
    "Latitude": "48.8656882",
    "Longitude": "2.3741156",
    "Id": "14",
    "Vérifié": "checked"
  },
  {
    "Nom": "L'autobus",
    "Lundi": "9:00-2:00",
    "Mardi": "9:00-2:00",
    "Mercredi": "9:00-2:00",
    "Jeudi": "9:00-2:00",
    "Vendredi": "9:00-2:00",
    "Samedi": "9:00-2:00",
    "Dimanche": "",
    "Photo": "lautobus.png (https://dl.airtable.com/poh3puJRNa0USrWZ8gAG_lautobus.png)",
    "Adresse": "1 Rue Oberkampf, 75011 Paris",
    "Latitude": "48.86277",
    "Longitude": "2.3652121",
    "Id": "15",
    "Vérifié": "checked"
  },
  {
    "Nom": "Espit Chupitos",
    "Lundi": "",
    "Mardi": "",
    "Mercredi": "",
    "Jeudi": "21:00-2:00",
    "Vendredi": "20:00-2:00",
    "Samedi": "20:00-2:00",
    "Dimanche": "",
    "Photo": "choupitos.jpg (https://dl.airtable.com/Yfc95ZVYQmuPIBbqaAaY_choupitos.jpg)",
    "Adresse": "117 Rue Saint-Maur, 75011 Paris",
    "Latitude": "48.8659083",
    "Longitude": "2.376339",
    "Id": "16",
    "Vérifié": "checked"
  },
  {
    "Nom": "Le Ciré Jaune",
    "Lundi": "",
    "Mardi": "18:00-2:00",
    "Mercredi": "18:00-2:00",
    "Jeudi": "18:00-2:00",
    "Vendredi": "18:00-2:00",
    "Samedi": "18:00-2:00",
    "Dimanche": "",
    "Photo": "cir%c3%a9jaune.jpg (https://dl.airtable.com/XE561R6qTea63jPwTk8q_cir%25c3%25a9jaune.jpg)",
    "Adresse": "112 Rue Saint-Maur, 75011 Paris",
    "Latitude": "48.8669285",
    "Longitude": "2.3741529",
    "Id": "17",
    "Vérifié": "checked"
  },
  {
    "Nom": "Rosa Bonheur",
    "Lundi": "",
    "Mardi": "",
    "Mercredi": "12:00-0:00",
    "Jeudi": "12:00-0:00",
    "Vendredi": "12:00-0:00",
    "Samedi": "10:00-0:00",
    "Dimanche": "10:00-0:00",
    "Photo": "rosabonheur.jpg (https://dl.airtable.com/BBHYvh2sQUSDnK3MpL67_rosabonheur.jpg)",
    "Adresse": "Parc des Buttes Chaumont, 2 Avenue de la Cascade, 75019 Paris",
    "Latitude": "48.8799395",
    "Longitude": "2.3840523",
    "Id": "18",
    "Vérifié": "checked"
  },
  {
    "Nom": "Le Café des Antiquaires",
    "Lundi": "8:00-2:00",
    "Mardi": "8:00-2:00",
    "Mercredi": "8:00-2:00",
    "Jeudi": "8:00-2:00",
    "Vendredi": "8:00-2:00",
    "Samedi": "18:00-02:00",
    "Dimanche": "",
    "Photo": "Le-Cafe-des-Antiquaires.jpg (https://dl.airtable.com/2wJ8cxagQ2KeAoktB2jM_Le-Cafe-des-Antiquaires.jpg)",
    "Adresse": "15 Rue de la Grange Batelière, 75009 Paris",
    "Latitude": "48.8730513",
    "Longitude": "2.3394161",
    "Id": "19",
    "Vérifié": "checked"
  },
  {
    "Nom": "La Rotonde",
    "Lundi": "10:00-2:00",
    "Mardi": "10:00-2:00",
    "Mercredi": "10:00-2:00",
    "Jeudi": "10:00-2:00",
    "Vendredi": "10:00-6:00",
    "Samedi": "10:00-6:00",
    "Dimanche": "12:00-22:00",
    "Photo": "la-rotonde.jpg (https://dl.airtable.com/a0Y2i1b5Q9SIx81s5v2c_la-rotonde.jpg)",
    "Adresse": "6-8 Place de la Bataille de Stalingrad, 75019 Paris",
    "Latitude": "48.8834168",
    "Longitude": "2.3671543",
    "Id": "20",
    "Vérifié": "checked"
  },
  {
    "Nom": "Le Dernier Bar avant la Fin du Monde",
    "Lundi": "15:00-02:00",
    "Mardi": "15:00-02:00",
    "Mercredi": "15:00-02:00",
    "Jeudi": "15:00-02:00",
    "Vendredi": "15:00-02:00",
    "Samedi": "11:30-2:00",
    "Dimanche": "11:30-2:00",
    "Photo": "dernierbar.png (https://dl.airtable.com/U0GJDDfZTaKPn4ej0AdU_dernierbar.png)",
    "Adresse": "19 Avenue Victoria, 75001 Paris",
    "Latitude": "48.8579535",
    "Longitude": "2.3441693",
    "Id": "21",
    "Vérifié": "checked"
  },
  {
    "Nom": "Meltdown",
    "Lundi": "18:00-1:00",
    "Mardi": "18:00-1:00",
    "Mercredi": "18:00-1:00",
    "Jeudi": "18:00-1:00",
    "Vendredi": "18:00-2:00",
    "Samedi": "18:00-2:00",
    "Dimanche": "15:00-21:00",
    "Photo": "destiny-meltdown-119.jpg (https://dl.airtable.com/ni4dRQtSCZz7VAlUWb0Q_destiny-meltdown-119.jpg)",
    "Adresse": "6 Passage Thiéré, 75011 Paris",
    "Latitude": "48.8535644",
    "Longitude": "2.3725791",
    "Id": "22",
    "Vérifié": "checked"
  },
  {
    "Nom": "N'Importe Quoi",
    "Lundi": "18:00-4:00",
    "Mardi": "18:00-4:00",
    "Mercredi": "18:00-4:00",
    "Jeudi": "18:00-5:00",
    "Vendredi": "18:00-5:00",
    "Samedi": "18:00-5:00",
    "Dimanche": "",
    "Photo": "le-nimporte-quoi-paris-bar-original.jpg (https://dl.airtable.com/XIBzw1BFRpO3F5aDDrOi_le-nimporte-quoi-paris-bar-original.jpg)",
    "Adresse": "16 Rue du Roule, 75001 Paris",
    "Latitude": "48.8607797",
    "Longitude": "2.3416736",
    "Id": "23",
    "Vérifié": "checked"
  },
  {
    "Nom": "La Bellevilloise",
    "Lundi": "",
    "Mardi": "",
    "Mercredi": "19:00-1:00",
    "Jeudi": "19:00-1:00",
    "Vendredi": "19:00-6:00",
    "Samedi": "11:00-6:00",
    "Dimanche": "11:30-16:00/19:00-1:00",
    "Photo": "bellevilloise.jpg (https://dl.airtable.com/Od8ppNu0ScahEZ37kA0P_bellevilloise.jpg)",
    "Adresse": "19-21 Rue Boyer, 75020 Paris",
    "Latitude": "48.8687272",
    "Longitude": "2.3898563",
    "Id": "24",
    "Vérifié": "checked"
  },
  {
    "Nom": "Black Dog",
    "Lundi": "12:00-2:00",
    "Mardi": "12:00-2:00",
    "Mercredi": "12:00-2:00",
    "Jeudi": "12:00-2:00",
    "Vendredi": "12:00-5:00",
    "Samedi": "12:00-5:00",
    "Dimanche": "17:00-2:00",
    "Photo": "blackdog.jpg (https://dl.airtable.com/k7zuUHSPQo6ajHy6AeMm_blackdog.jpg)",
    "Adresse": "26 Rue des Lombards, 75004 Paris",
    "Latitude": "48.8594218",
    "Longitude": "2.3469987",
    "Id": "25",
    "Vérifié": "checked"
  },
  {
    "Nom": "La Maroquinerie",
    "Lundi": "19:30-23:30",
    "Mardi": "19:30-23:30",
    "Mercredi": "19:30-23:30",
    "Jeudi": "19:30-23:30",
    "Vendredi": "19:30-23:30",
    "Samedi": "19:30-23:30",
    "Dimanche": "",
    "Photo": "maroquinerie.JPG (https://dl.airtable.com/0bw4YfjxSIiQlTGSxJrO_maroquinerie.JPG)",
    "Adresse": "23 Rue Boyer, 75020 Paris",
    "Latitude": "48.8685113",
    "Longitude": "2.3898274",
    "Id": "26",
    "Vérifié": "checked"
  },
  {
    "Nom": "La Maison Bistrot",
    "Lundi": "10:00-2:00",
    "Mardi": "10:00-2:00",
    "Mercredi": "10:00-2:00",
    "Jeudi": "10:00-2:00",
    "Vendredi": "10:00-2:00",
    "Samedi": "10:00-2:00",
    "Dimanche": "",
    "Photo": "lamaison.jpg (https://dl.airtable.com/0e4qUcn6SN6iHL6mnhmE_lamaison.jpg)",
    "Adresse": "65 Boulevard de la Villette, 75010 Paris",
    "Latitude": "48.876253",
    "Longitude": "2.3697092",
    "Id": "27",
    "Vérifié": "checked"
  },
  {
    "Nom": "Café Oz - Denfert Rochereau",
    "Lundi": "12:00-2:00",
    "Mardi": "12:00-3:00",
    "Mercredi": "12:00-3:00",
    "Jeudi": "12:00-5:00",
    "Vendredi": "12:00-5:00",
    "Samedi": "12:00-5:00",
    "Dimanche": "11:00-2:00",
    "Photo": "cafeozdenfert.png (https://dl.airtable.com/KOofqF5PRu2B4qZzpSgQ_cafeozdenfert.png)",
    "Adresse": "3 Place Denfert-Rochereau, 75014 Paris",
    "Latitude": "48.8333124",
    "Longitude": "2.3316967",
    "Id": "28",
    "Vérifié": "checked"
  },
  {
    "Nom": "Café Oz - Châtelet",
    "Lundi": "17:00-2:00",
    "Mardi": "17:00-3:00",
    "Mercredi": "17:00-4:00",
    "Jeudi": "17:00-5:00",
    "Vendredi": "17:00-5:00",
    "Samedi": "12:00-5:00",
    "Dimanche": "12:00-2:00",
    "Photo": "cafeozchatelet.jpg (https://dl.airtable.com/zQuX2OMKQkesxCG8jlkC_cafeozchatelet.jpg)",
    "Adresse": "18 Rue St Denis, 75001 Paris",
    "Latitude": "48.8594041",
    "Longitude": "2.3458014",
    "Id": "29",
    "Vérifié": "checked"
  },
  {
    "Nom": "Café Oz - Grands Boulevards",
    "Lundi": "16:00-3:00",
    "Mardi": "16:00-4:00",
    "Mercredi": "16:00-4:00",
    "Jeudi": "16:00-4:00",
    "Vendredi": "16:00-5:00",
    "Samedi": "12:00-5:00",
    "Dimanche": "14:00-3:00",
    "Photo": "cafeozgrandsboulevard.jpg (https://dl.airtable.com/pgMlgppT5imAbCwUiapA_cafeozgrandsboulevard.jpg)",
    "Adresse": "8 Boulevard Montmartre, 75009 Paris",
    "Latitude": "48.8718411",
    "Longitude": "2.34007",
    "Id": "30",
    "Vérifié": "checked"
  },
  {
    "Nom": "O'Sullivans - Grand Boulevard",
    "Lundi": "12:00-4:30",
    "Mardi": "12:00-4:30",
    "Mercredi": "12:00-4:30",
    "Jeudi": "12:00-5:30",
    "Vendredi": "12:00-5:30",
    "Samedi": "14:00-4:30",
    "Dimanche": "14:00-4:30",
    "Photo": "osullivans-grandsboulevards.png (https://dl.airtable.com/kCcl51rqRvadBKVqKWpz_osullivans-grandsboulevards.png)",
    "Adresse": "1 Boulevard Montmartre, 75002 Paris",
    "Latitude": "48.8713695",
    "Longitude": "2.3406033",
    "Id": "31",
    "Vérifié": "checked"
  },
  {
    "Nom": "Corcoran's Irish Pub - Grands Boulevards",
    "Lundi": "9:00-2:00",
    "Mardi": "9:00-2:00",
    "Mercredi": "9:00-2:00",
    "Jeudi": "9:00-3:00",
    "Vendredi": "9:00-5:00",
    "Samedi": "11:00-5:00",
    "Dimanche": "11:00-2:00",
    "Photo": "corcorans.jpg (https://dl.airtable.com/mJjwDdOfSHS4cCc3iDTE_corcorans.jpg)",
    "Adresse": "23 Boulevard Poissonnière, 75009 Paris",
    "Latitude": "48.8711471",
    "Longitude": "2.3419551",
    "Id": "32",
    "Vérifié": "checked"
  },
  {
    "Nom": "Buddha Bar",
    "Lundi": "18:00-1:00",
    "Mardi": "18:00-1:00",
    "Mercredi": "18:00-1:00",
    "Jeudi": "18:00-1:00",
    "Vendredi": "18:00-3:00",
    "Samedi": "18:00-3:00",
    "Dimanche": "18:00-1:00",
    "Photo": "BBar_Paris.jpg (https://dl.airtable.com/QT5p0z2ERrynApnoMud5_BBar_Paris.jpg)",
    "Adresse": "8-12 Rue Boissy d'Anglas, 75008 Paris",
    "Latitude": "48.8679079",
    "Longitude": "2.3191734",
    "Id": "33",
    "Vérifié": "checked"
  },
  {
    "Nom": "Le Quartier Général",
    "Lundi": "",
    "Mardi": "17:00-5:00",
    "Mercredi": "17:00-5:00",
    "Jeudi": "17:00-5:00",
    "Vendredi": "17:00-5:00",
    "Samedi": "17:00-5:00",
    "Dimanche": "",
    "Photo": "quartiergeneralcoub-950x380.jpg (https://dl.airtable.com/eeTLjNiyRoaj5ScRVmPh_quartiergeneralcoub-950x380.jpg)",
    "Adresse": "103 Rue Oberkampf, 75011 Paris",
    "Latitude": "48.8656867",
    "Longitude": "2.374942",
    "Id": "34",
    "Vérifié": "checked"
  },
  {
    "Nom": "Le 43",
    "Lundi": "",
    "Mardi": "17:00-22:00",
    "Mercredi": "17:00-22:00",
    "Jeudi": "17:00-22:00",
    "Vendredi": "",
    "Samedi": "",
    "Dimanche": "",
    "Photo": "Up-the-roof.jpg (https://dl.airtable.com/CzB523FdTNaN2S2OmPYe_Up-the-roof.jpg)",
    "Adresse": "4 Rue Danton, 75006 Paris",
    "Latitude": "48.8528053",
    "Longitude": "2.3417201",
    "Id": "35",
    "Vérifié": "checked"
  },
  {
    "Nom": "Le 153",
    "Lundi": "18:00-2:00",
    "Mardi": "18:00-2:00",
    "Mercredi": "18:00-2:00",
    "Jeudi": "18:00-2:00",
    "Vendredi": "18:00-2:00",
    "Samedi": "18:00-2:00",
    "Dimanche": "",
    "Photo": "153.jpg (https://dl.airtable.com/igKZYRTcTFKJO2d4wSzt_153.jpg)",
    "Adresse": "153 Rue Saint-Martin, 75003 Paris",
    "Latitude": "48.8619875",
    "Longitude": "2.3495204",
    "Id": "36",
    "Vérifié": "checked"
  },
  {
    "Nom": "Le 138",
    "Lundi": "7:00-2:00",
    "Mardi": "7:00-2:00",
    "Mercredi": "7:00-2:00",
    "Jeudi": "7:00-2:00",
    "Vendredi": "7:00-2:00",
    "Samedi": "7:00-2:00",
    "Dimanche": "7:00-2:00",
    "Photo": "138.jpg (https://dl.airtable.com/uixsLfY6QwqznvgKWkKN_138.jpg)",
    "Adresse": "138 Rue du Faubourg Saint-Antoine, 75012 Paris",
    "Latitude": "48.8504325",
    "Longitude": "2.3772433",
    "Id": "37",
    "Vérifié": "checked"
  },
  {
    "Nom": "Les petites Gouttes",
    "Lundi": "",
    "Mardi": "11:00-2:00",
    "Mercredi": "11:00-2:00",
    "Jeudi": "11:00-2:00",
    "Vendredi": "11:00-2:00",
    "Samedi": "11:00-2:00",
    "Dimanche": "11:00-19:00",
    "Photo": "carousel_petites-gouttes-aux.jpg (https://dl.airtable.com/AZIvYLkSBilouweb8Ufq_carousel_petites-gouttes-aux.jpg)",
    "Adresse": "12 Espl. Nathalie Sarraute, 75018 Paris",
    "Latitude": "48.8882807",
    "Longitude": "2.3605043",
    "Id": "38",
    "Vérifié": "checked"
  },
  {
    "Nom": "En vrac",
    "Lundi": "10:00-0:00",
    "Mardi": "10:00-0:00",
    "Mercredi": "10:00-0:00",
    "Jeudi": "10:00-0:00",
    "Vendredi": "10:00-0:00",
    "Samedi": "10:00-0:00",
    "Dimanche": "10:00-0:00",
    "Photo": "en-vrac-bar-paris.jpg (https://dl.airtable.com/1tACG0koRMaoBirhulio_en-vrac-bar-paris.jpg)",
    "Adresse": "2 rue de l’Olive, 75018 Paris",
    "Latitude": "48.8901403",
    "Longitude": "2.3591845",
    "Id": "39",
    "Vérifié": "checked"
  },
  {
    "Nom": "Brasserie Barbès",
    "Lundi": "8:00-2:30",
    "Mardi": "8:00-2:30",
    "Mercredi": "8:00-2:30",
    "Jeudi": "8:00-2:30",
    "Vendredi": "8:00-2:30",
    "Samedi": "8:00-2:30",
    "Dimanche": "8:00-2:30",
    "Photo": "brasseriebarbes.jpg (https://dl.airtable.com/nbCuLSQHa7VqAzPJwKXA_brasseriebarbes.jpg)",
    "Adresse": "2 Boulevard Barbès, 75018 Paris",
    "Latitude": "48.8839747",
    "Longitude": "2.3475017",
    "Id": "42",
    "Vérifié": "checked"
  },
  {
    "Nom": "L'imprévu",
    "Lundi": "8:00-2:00",
    "Mardi": "8:00-2:00",
    "Mercredi": "8:00-2:00",
    "Jeudi": "8:00-2:00",
    "Vendredi": "8:00-2:00",
    "Samedi": "",
    "Dimanche": "9:00-2:00",
    "Photo": "limpr%c3%a9vu.jpg (https://dl.airtable.com/WY5dqdEcTEm8SsqfiAVu_limpr%25c3%25a9vu.jpg)",
    "Adresse": "35 Rue Didot, 75014 Paris",
    "Latitude": "48.8324566",
    "Longitude": "2.3185243",
    "Id": "43",
    "Vérifié": "checked"
  },
  {
    "Nom": "Au métro",
    "Lundi": "7:00-1:00",
    "Mardi": "7:00-1:00",
    "Mercredi": "7:00-1:00",
    "Jeudi": "7:00-1:00",
    "Vendredi": "7:00-1:00",
    "Samedi": "7:00-1:00",
    "Dimanche": "7:00-1:00",
    "Photo": "au-metro-14-exterieur-83bfd.jpg (https://dl.airtable.com/x4I6P6wRE6gGt88lkk9A_au-metro-14-exterieur-83bfd.jpg)",
    "Adresse": "66 Rue Raymond Losserand, 75014 Paris",
    "Latitude": "48.8341401",
    "Longitude": "2.3159432",
    "Id": "44",
    "Vérifié": "checked"
  },
  {
    "Nom": "Le repaire de Bacchus",
    "Lundi": "",
    "Mardi": "11:00-22:00",
    "Mercredi": "11:00-22:00",
    "Jeudi": "11:00-22:00",
    "Vendredi": "11:00-22:00",
    "Samedi": "11:00-22:00",
    "Dimanche": "10:00-20:00",
    "Photo": "bacchus.jpg (https://dl.airtable.com/vM0OBv8TP6CFpooGfeKO_bacchus.jpg)",
    "Adresse": "18 Rue Daguerre, 75014 Paris",
    "Latitude": "48.8340075",
    "Longitude": "2.3274493",
    "Id": "45",
    "Vérifié": "checked"
  },
  {
    "Nom": "Café Daguerre",
    "Lundi": "7:00-2:00",
    "Mardi": "7:00-2:00",
    "Mercredi": "7:00-2:00",
    "Jeudi": "7:00-2:00",
    "Vendredi": "7:00-2:00",
    "Samedi": "7:00-2:00",
    "Dimanche": "7:00-2:00",
    "Photo": "caf%c3%a9+daguerre.jpg (https://dl.airtable.com/VVAaHSKWTcesjhedQ58K_caf%25c3%25a9%2Bdaguerre.jpg)",
    "Adresse": "4 Avenue du Général Leclerc, 75014 Paris",
    "Latitude": "48.8334511",
    "Longitude": "2.3292454",
    "Id": "46",
    "Vérifié": "checked"
  },
  {
    "Nom": "La Chope Daguerre",
    "Lundi": "8:00-2:00",
    "Mardi": "8:00-2:00",
    "Mercredi": "8:00-2:00",
    "Jeudi": "8:00-2:00",
    "Vendredi": "8:00-2:00",
    "Samedi": "8:00-2:00",
    "Dimanche": "8:00-2:00",
    "Photo": "la+chope+daguerre.jpg (https://dl.airtable.com/lHdWgg3fROakIVcDAXJJ_la%2Bchope%2Bdaguerre.jpg)",
    "Adresse": "17 Rue Daguerre, 75014 Paris",
    "Latitude": "48.8337681",
    "Longitude": "2.3278144",
    "Id": "47",
    "Vérifié": "checked"
  },
  {
    "Nom": "Transversal",
    "Lundi": "10:00-0:00",
    "Mardi": "10:00-0:00",
    "Mercredi": "10:00-0:00",
    "Jeudi": "10:00-0:00",
    "Vendredi": "10:00-0:00",
    "Samedi": "10:00-0:00",
    "Dimanche": "",
    "Photo": "transversal.jpg (https://dl.airtable.com/3kmGLrRtQ6KW9U8QtZII_transversal.jpg)",
    "Adresse": " 22 Rue Daguerre, 75014 Paris",
    "Latitude": "48.8341091",
    "Longitude": "2.3272276",
    "Id": "48",
    "Vérifié": "checked"
  },
  {
    "Nom": "Le Bar Hemingway",
    "Lundi": "18:00-2:00",
    "Mardi": "18:00-2:00",
    "Mercredi": "18:00-2:00",
    "Jeudi": "18:00-2:00",
    "Vendredi": "18:00-2:00",
    "Samedi": "18:00-2:00",
    "Dimanche": "18:00-2:00",
    "Photo": "963123_ritz.jpg (https://dl.airtable.com/3TddHZ3wQqu6SvZC2ikC_963123_ritz.jpg)",
    "Adresse": "15 Place Vendôme, 75001 Paris",
    "Latitude": "48.8682425",
    "Longitude": "2.3263482",
    "Id": "49",
    "Vérifié": "checked"
  },
  {
    "Nom": "Le Bar 8",
    "Lundi": "11:00-0:00",
    "Mardi": "11:00-0:00",
    "Mercredi": "11:00-0:00",
    "Jeudi": "11:00-2:00",
    "Vendredi": "11:00-2:00",
    "Samedi": "11:00-2:00",
    "Dimanche": "11:00-0:00",
    "Photo": "Bar-8.jpg (https://dl.airtable.com/alU2BPFQQ2eXSsDQodxi_Bar-8.jpg)",
    "Adresse": "251 rue Saint-Honoré - 75001 Paris",
    "Latitude": "48.8669624",
    "Longitude": "2.3247299",
    "Id": "50",
    "Vérifié": "checked"
  },
  {
    "Nom": "Bar 228",
    "Lundi": "12:00-1:00",
    "Mardi": "12:00-1:00",
    "Mercredi": "12:00-1:00",
    "Jeudi": "12:00-1:00",
    "Vendredi": "12:00-1:00",
    "Samedi": "12:00-1:00",
    "Dimanche": "12:00-1:00",
    "Photo": "bar-228.jpg (https://dl.airtable.com/oEFR2EBS8uJv7HluBO3g_bar-228.jpg)",
    "Adresse": "228 Rue de Rivoli, 75001 Paris",
    "Latitude": "48.8653312",
    "Longitude": "2.3259392",
    "Id": "51",
    "Vérifié": "checked"
  },
  {
    "Nom": "O'nesty",
    "Lundi": "18:00-1:00",
    "Mardi": "18:00-1:00",
    "Mercredi": "18:00-1:00",
    "Jeudi": "18:00-1:00",
    "Vendredi": "18:00-1:00",
    "Samedi": "18:00-1:00",
    "Dimanche": "18:00-1:00",
    "Photo": "Paris-bar-O.jpg (https://dl.airtable.com/yGHW6m0zTwi58BQBvTvQ_Paris-bar-O.jpg)",
    "Adresse": "19 rue Hérold - 75001 Paris",
    "Latitude": "48.8651179",
    "Longitude": "2.3394214",
    "Id": "52",
    "Vérifié": "checked"
  },
  {
    "Nom": "Duke’s Bar",
    "Lundi": "12:00-14:30/16:00-18:00/18:00-22:30",
    "Mardi": "12:00-14:30/16:00-18:00/18:00-22:30",
    "Mercredi": "12:00-14:30/16:00-18:00/18:00-22:30",
    "Jeudi": "12:00-14:30/16:00-18:00/18:00-22:30",
    "Vendredi": "12:00-14:30/16:00-18:00/18:00-22:30",
    "Samedi": "12:00-14:30/16:00-18:00/18:00-22:30",
    "Dimanche": "12:00-14:30/16:00-18:00/18:00-22:30",
    "Photo": "Duke%e2%80%99s-Bar-H%c3%b4tel-Westminster---630x405---%c2%a9-H%c3%b4tel-Westminster.jpg (https://dl.airtable.com/qmWW0p6SkKwpLag3SYsT_Duke%25e2%2580%2599s-Bar-H%25c3%25b4tel-Westminster---630x405---%25c2%25a9-H%25c3%25b4tel-Westminster.jpg)",
    "Adresse": "13 rue de la Paix, 75002 Paris",
    "Latitude": "48.8651179",
    "Longitude": "2.3394214",
    "Id": "53",
    "Vérifié": "checked"
  },
  {
    "Nom": "La Mezcaleria",
    "Lundi": "",
    "Mardi": "18:00-2:00",
    "Mercredi": "18:00-2:00",
    "Jeudi": "18:00-2:00",
    "Vendredi": "18:00-2:00",
    "Samedi": "18:00-2:00",
    "Dimanche": "",
    "Photo": "1K-Paris-Bar-031.jpg (https://dl.airtable.com/uQ4fBeKoTm6k83R5Q9kT_1K-Paris-Bar-031.jpg)",
    "Adresse": "13 boulevard du Temple, 75003 Paris",
    "Latitude": "48.8639355",
    "Longitude": "2.3636853",
    "Id": "54",
    "Vérifié": "checked"
  },
  {
    "Nom": "Jules & Jim",
    "Lundi": "17:00-23:00",
    "Mardi": "17:00-23:00",
    "Mercredi": "17:00-23:00",
    "Jeudi": "17:00-23:00",
    "Vendredi": "17:00-23:00",
    "Samedi": "17:00-23:00",
    "Dimanche": "16:00-22:00",
    "Photo": "jules-et-jim-bar-paris-04.jpg (https://dl.airtable.com/emBysnXbQYGoe8fkSj9O_jules-et-jim-bar-paris-04.jpg)",
    "Adresse": "11 Rue des Gravilliers, 75003 Paris",
    "Latitude": "48.8635489",
    "Longitude": "2.3551629",
    "Id": "55",
    "Vérifié": "checked"
  },
  {
    "Nom": "Le Blind Bar",
    "Lundi": "11:00-23:00",
    "Mardi": "11:00-0:30",
    "Mercredi": "11:00-0:30",
    "Jeudi": "11:00-0:30",
    "Vendredi": "11:00-0:30",
    "Samedi": "11:00-0:30",
    "Dimanche": "",
    "Photo": "blind+bar.jpg (https://dl.airtable.com/Tk1kJkTVS9GsjWXYfNSx_blind%2Bbar.jpg)",
    "Adresse": "8, rue Jean Goujon, 75008, Paris",
    "Latitude": "48.8666057",
    "Longitude": "2.3090712",
    "Id": "56",
    "Vérifié": "checked"
  },
  {
    "Nom": "Shangri-La",
    "Lundi": "18:00-2:00",
    "Mardi": "18:00-2:00",
    "Mercredi": "18:00-2:00",
    "Jeudi": "18:00-2:00",
    "Vendredi": "18:00-2:00",
    "Samedi": "18:00-2:00",
    "Dimanche": "18:00-2:00",
    "Photo": "13847-le-bar-du-shangri-la-hotel-article_diapo-1.jpg (https://dl.airtable.com/5BAuUaRfRjaFpFxPU7eW_13847-le-bar-du-shangri-la-hotel-article_diapo-1.jpg)",
    "Adresse": "10 Avenue d'Iéna, 75116 Paris",
    "Latitude": "48.863717",
    "Longitude": "2.2912872",
    "Id": "58",
    "Vérifié": "checked"
  },
  {
    "Nom": "Saint James Paris",
    "Lundi": "19:00-1:00",
    "Mardi": "19:00-1:00",
    "Mercredi": "19:00-1:00",
    "Jeudi": "19:00-1:00",
    "Vendredi": "19:00-1:00",
    "Samedi": "19:00-1:00",
    "Dimanche": "19:00-1:00",
    "Photo": "saint+james+paris.jpg (https://dl.airtable.com/k7gsAiuFQcWX6SnQ9dvx_saint%2Bjames%2Bparis.jpg)",
    "Adresse": "43 Avenue Bugeaud, 75116 Paris",
    "Latitude": "48.8704761",
    "Longitude": "2.2775575",
    "Id": "59",
    "Vérifié": "checked"
  },
  {
    "Nom": "Noham Café",
    "Lundi": "7:00-23:00",
    "Mardi": "7:00-23:00",
    "Mercredi": "7:00-23:00",
    "Jeudi": "7:00-23:00",
    "Vendredi": "7:00-23:00",
    "Samedi": "7:00-23:00",
    "Dimanche": "7:00-23:00",
    "Photo": "Noham+Caf%c3%a9.jpg (https://dl.airtable.com/ZZ4777FATEWrlEstw5Hu_Noham%2BCaf%25c3%25a9.jpg)",
    "Adresse": "3 Avenue Mac Mahon 75017 Paris",
    "Latitude": "48.8753923",
    "Longitude": "2.2923282",
    "Id": "60",
    "Vérifié": "checked"
  },
  {
    "Nom": "Le Bar Long",
    "Lundi": "10:00-1:00",
    "Mardi": "10:00-1:00",
    "Mercredi": "10:00-0:00",
    "Jeudi": "10:00-0:00",
    "Vendredi": "10:00-0:00",
    "Samedi": "10:00-0:00",
    "Dimanche": "10:00-1:00",
    "Photo": "le+bar+long.jpg (https://dl.airtable.com/aX4KPFQuu1NhCexDfBwX_le%2Bbar%2Blong.jpg)",
    "Adresse": "37 Avenue Hoche, 75008 Paris",
    "Latitude": "48.8758298",
    "Longitude": "2.2982182",
    "Id": "61",
    "Vérifié": "checked"
  },
  {
    "Nom": "Island Bar - Mama Shelter",
    "Lundi": "12:00-1:30",
    "Mardi": "12:00-1:30",
    "Mercredi": "12:00-1:30",
    "Jeudi": "12:00-1:30",
    "Vendredi": "12:00-1:30",
    "Samedi": "12:00-1:30",
    "Dimanche": "12:00-1:30",
    "Photo": "mama-shelter-paris-bar-2.jpg (https://dl.airtable.com/FNI8KGx1TnaGcY0JD75V_mama-shelter-paris-bar-2.jpg)",
    "Adresse": "109 rue de Bagnolet, 75020 Paris",
    "Latitude": "48.859836",
    "Longitude": "2.4005463",
    "Id": "62",
    "Vérifié": "checked"
  },
  {
    "Nom": "The Ice KUBE",
    "Lundi": "18:30-1:00",
    "Mardi": "18:30-1:00",
    "Mercredi": "18:30-1:00",
    "Jeudi": "18:30-1:00",
    "Vendredi": "18:30-1:00",
    "Samedi": "18:30-1:00",
    "Dimanche": "18:30-1:00",
    "Photo": "ice-kubebar-paris.jpg (https://dl.airtable.com/1AydpZlkRVyA9sel5y4m_ice-kubebar-paris.jpg)",
    "Adresse": "5 Passage Ruelle, 75018 Paris",
    "Latitude": "48.8865242",
    "Longitude": "2.3566213",
    "Id": "63",
    "Vérifié": "checked"
  },
  {
    "Nom": "Le Dokhan’s Bar",
    "Lundi": "18:00-0:00",
    "Mardi": "18:00-0:00",
    "Mercredi": "18:00-0:00",
    "Jeudi": "18:00-0:00",
    "Vendredi": "18:00-0:00",
    "Samedi": "18:00-0:00",
    "Dimanche": "18:00-0:00",
    "Photo": "le+dokhans.jpg (https://dl.airtable.com/5fwh3IJsS3CNvQBQAoAu_le%2Bdokhans.jpg)",
    "Adresse": "117 Rue Lauriston, 75116 Paris",
    "Latitude": "48.8663394",
    "Longitude": "2.2846048",
    "Id": "66",
    "Vérifié": "checked"
  },
  {
    "Nom": "Bar du Terrass' Hotel",
    "Lundi": "15:30-1:00",
    "Mardi": "15:30-1:00",
    "Mercredi": "15:30-1:00",
    "Jeudi": "15:30-1:00",
    "Vendredi": "15:30-1:00",
    "Samedi": "15:30-1:00",
    "Dimanche": "15:30-1:00",
    "Photo": "Bar+Terass+Hotel.jpg (https://dl.airtable.com/AoLviKVRmS1hX9U0vNSP_Bar%2BTerass%2BHotel.jpg)",
    "Adresse": "12-14 Rue Joseph de Maistre 75018 Paris",
    "Latitude": "48.8865661",
    "Longitude": "2.3307761",
    "Id": "67",
    "Vérifié": "checked"
  },
  {
    "Nom": "Le Perchoir",
    "Lundi": "",
    "Mardi": "18:00-1:30",
    "Mercredi": "18:00-1:30",
    "Jeudi": "18:00-1:30",
    "Vendredi": "18:00-1:30",
    "Samedi": "18:00-1:30",
    "Dimanche": "",
    "Photo": "le-perchoir-1_4519918.jpg (https://dl.airtable.com/BW550vXgTkCiJFtUHm5W_le-perchoir-1_4519918.jpg)",
    "Adresse": "14 Rue Crespin du Gast, 75011 Paris",
    "Latitude": "48.8654558",
    "Longitude": "2.3798288",
    "Id": "68",
    "Vérifié": "checked"
  },
  {
    "Nom": "Le Perchoir Marais",
    "Lundi": "",
    "Mardi": "",
    "Mercredi": "20:15-1:30",
    "Jeudi": "20:15-1:30",
    "Vendredi": "20:15-1:30",
    "Samedi": "20:15-1:30",
    "Dimanche": "",
    "Photo": "7556-LE-PERCHOIR-MARAIS.jpg (https://dl.airtable.com/qlbwHXm5ThSGPyM7Npkl_7556-LE-PERCHOIR-MARAIS.jpg)",
    "Adresse": "37 rue de la Verrerie 75004 Paris",
    "Latitude": "48.8574997",
    "Longitude": "2.351725",
    "Id": "69",
    "Vérifié": "checked"
  },
  {
    "Nom": "The Fifth",
    "Lundi": "17:00-2:00",
    "Mardi": "17:00-2:00",
    "Mercredi": "17:00-2:00",
    "Jeudi": "17:00-2:00",
    "Vendredi": "17:00-4:00",
    "Samedi": "17:00-4:45",
    "Dimanche": "17:00-2:45",
    "Photo": "fifth.jpg (https://dl.airtable.com/Emwog2O4RVGvL03LNRNe_fifth.jpg)",
    "Adresse": "62 Rue Mouffetard, 75005 Paris",
    "Latitude": "48.8430266",
    "Longitude": "2.3473318",
    "Id": "71",
    "Vérifié": "checked"
  },
  {
    "Nom": "Point Éphémère",
    "Lundi": "12:30-2:00",
    "Mardi": "12:30-2:00",
    "Mercredi": "12:30-2:00",
    "Jeudi": "12:30-2:00",
    "Vendredi": "12:30-2:00",
    "Samedi": "12:30-2:00",
    "Dimanche": "12:30-22:00",
    "Photo": "pointephemere.jpg (https://dl.airtable.com/DbxlhJKSoqN4dp0gNk7b_pointephemere.jpg)",
    "Adresse": "200 Quai de Valmy, 75010 Paris",
    "Latitude": "48.8812785",
    "Longitude": "2.3661533",
    "Id": "73",
    "Vérifié": "checked"
  },
  {
    "Nom": "The Frog at Bercy Village",
    "Lundi": "7:30-1:00",
    "Mardi": "7:30-1:00",
    "Mercredi": "7:30-1:00",
    "Jeudi": "7:30-2:00",
    "Vendredi": "8:00-3:00",
    "Samedi": "8:00-3:00",
    "Dimanche": "8:00-1:00",
    "Photo": "frogbercy.jpg (https://dl.airtable.com/E6efODdFSXC7a8i9jp39_frogbercy.jpg)",
    "Adresse": "Bercy Village, 25 Cour Saint-Emilion, 75012 Paris",
    "Latitude": "48.8330618",
    "Longitude": "2.3838574",
    "Id": "74",
    "Vérifié": "checked"
  },
  {
    "Nom": "Les Caves Alliées",
    "Lundi": "",
    "Mardi": "17:00-2:00",
    "Mercredi": "17:00-2:00",
    "Jeudi": "17:00-2:00",
    "Vendredi": "17:00-2:00",
    "Samedi": "14:00-2:00",
    "Dimanche": "",
    "Photo": "cavesalliees.jpg (https://dl.airtable.com/oEyfDTLTqGySvYMpwcdw_cavesalliees.jpg)",
    "Adresse": "44 Rue Grégoire de Tours, 75006 Paris",
    "Latitude": "48.8518914",
    "Longitude": "2.3352134",
    "Id": "75",
    "Vérifié": "checked"
  },
  {
    "Nom": "Café Chéri",
    "Lundi": "17:00-2:00",
    "Mardi": "17:00-2:00",
    "Mercredi": "17:00-2:00",
    "Jeudi": "17:00-2:00",
    "Vendredi": "17:00-2:00",
    "Samedi": "11:00-2:00",
    "Dimanche": "",
    "Photo": "cafecherie.jpg (https://dl.airtable.com/oxLaueVTAiOuSfY6le8w_cafecherie.jpg)",
    "Adresse": "44 Boulevard de la Villette, 75019 Paris",
    "Latitude": "48.8537428",
    "Longitude": "2.2743967",
    "Id": "76",
    "Vérifié": "checked"
  },
  {
    "Nom": "AbracadaBar",
    "Lundi": "18:00-2:00",
    "Mardi": "18:00-2:00",
    "Mercredi": "18:00-2:00",
    "Jeudi": "18:00-5:00",
    "Vendredi": "18:00-5:00",
    "Samedi": "18:00-2:00",
    "Dimanche": "18:00-2:00",
    "Photo": "abracadabar.jpg (https://dl.airtable.com/X8pO20ZhTBQqxVL52xno_abracadabar.jpg)",
    "Adresse": "123 Avenue Jean Jaurès, 75019 Paris",
    "Latitude": "48.8861027",
    "Longitude": "2.3799669",
    "Id": "77",
    "Vérifié": "checked"
  },
  {
    "Nom": "Pavillon Puebla",
    "Lundi": "",
    "Mardi": "",
    "Mercredi": "18:00-2:00",
    "Jeudi": "18:00-2:00",
    "Vendredi": "18:00-2:00",
    "Samedi": "18:00-2:00",
    "Dimanche": "12:00-20:00",
    "Photo": "pavillonpuebla.jpg (https://dl.airtable.com/X6Z6xkLTgiWMg0Qz0inQ_pavillonpuebla.jpg)",
    "Adresse": "Parc des Buttes Chaumont, Avenue Darcel, 75019 Paris",
    "Latitude": "48.8772435",
    "Longitude": "2.3771103",
    "Id": "78",
    "Vérifié": "checked"
  },
  {
    "Nom": "Mo'Town",
    "Lundi": "10:00-02:00",
    "Mardi": "10:00-02:00",
    "Mercredi": "10:00-02:00",
    "Jeudi": "10:00-02:00",
    "Vendredi": "10:00-02:00",
    "Samedi": "10:00-02:00",
    "Dimanche": "10:00-02:00",
    "Photo": "motown.jpg (https://dl.airtable.com/NTj8Pt2fT5C3f2Hp0nn0_motown.jpg)",
    "Adresse": "116 Boulevard de Ménilmontant, 75020 Paris",
    "Latitude": "48.8657165",
    "Longitude": "2.3824747",
    "Id": "79",
    "Vérifié": "checked"
  },
  {
    "Nom": "Le Calbar",
    "Lundi": "17:00-02:00",
    "Mardi": "17:00-02:00",
    "Mercredi": "17:00-02:00",
    "Jeudi": "17:00-02:00",
    "Vendredi": "17:00-02:00",
    "Samedi": "17:00-02:00",
    "Dimanche": "",
    "Photo": "calbar1.jpg (https://dl.airtable.com/BJKLj85DRsGw8SqRqIVI_calbar1.jpg)",
    "Adresse": "82 Rue de Charenton, 75012 Paris",
    "Latitude": "48.8486885",
    "Longitude": "2.3731003",
    "Id": "80",
    "Vérifié": "checked"
  },
  {
    "Nom": "Candelaria",
    "Lundi": "12:00-23:00",
    "Mardi": "12:00-23:00",
    "Mercredi": "12:00-23:00",
    "Jeudi": "12:00-23:00",
    "Vendredi": "12:00-0:00",
    "Samedi": "12:00-0:00",
    "Dimanche": "12:00-23:00",
    "Photo": "candelaria.jpg (https://dl.airtable.com/i8nGZnxXQfWHAZ2CDCwz_candelaria.jpg)",
    "Adresse": "56 rue de Saintonge, 75003 Paris",
    "Latitude": "48.8629845",
    "Longitude": "2.3618453",
    "Id": "82",
    "Vérifié": "checked"
  },
  {
    "Nom": "Le Zinc",
    "Lundi": "08:00-2:00",
    "Mardi": "08:00-2:00",
    "Mercredi": "08:00-2:00",
    "Jeudi": "08:00-2:00",
    "Vendredi": "08:00-2:00",
    "Samedi": "08:00-2:00",
    "Dimanche": "09:00-2:00",
    "Photo": "le-zinc-corner-1200x900.jpg (https://dl.airtable.com/HL79upJwQNaQlH5710k9_le-zinc-corner-1200x900.jpg)",
    "Adresse": "61 Avenue de la Motte-Picquet, 75015 Paris",
    "Latitude": "48.8495731",
    "Longitude": "2.2967442",
    "Id": "83",
    "Vérifié": "checked"
  },
  {
    "Nom": "Au Dernier Métro",
    "Lundi": "07:00-02:00",
    "Mardi": "07:00-02:00",
    "Mercredi": "06:00-02:00",
    "Jeudi": "06:00-02:00",
    "Vendredi": "06:00-02:00",
    "Samedi": "06:00-02:00",
    "Dimanche": "06:00-02:00",
    "Photo": "photo-635633423166610601-2.jpg (https://dl.airtable.com/ipqzmVJTRRKJWXwg2s1B_photo-635633423166610601-2.jpg)",
    "Adresse": "70 Boulevard de Grenelle, 75015 Paris",
    "Latitude": "48.8503747",
    "Longitude": "2.2907624",
    "Id": "84",
    "Vérifié": "checked"
  },
  {
    "Nom": "Celtic Corner Pub",
    "Lundi": "16:00-02:00",
    "Mardi": "16:00-02:00",
    "Mercredi": "16:00-02:00",
    "Jeudi": "16:00-02:00",
    "Vendredi": "16:00-02:00",
    "Samedi": "16:00-02:00",
    "Dimanche": "",
    "Photo": "13522023_10153758550176375_8672208421626093102_n.jpg (https://dl.airtable.com/lXs7vVxCRtW6ckrihgk8_13522023_10153758550176375_8672208421626093102_n.jpg)",
    "Adresse": "88 Rue de la Croix Nivert, 75015 Paris",
    "Latitude": "48.8438576",
    "Longitude": "2.2936165",
    "Id": "85",
    "Vérifié": "checked"
  },
  {
    "Nom": "Le Cristal",
    "Lundi": "15:00-02:00",
    "Mardi": "15:00-02:00",
    "Mercredi": "15:00-02:00",
    "Jeudi": "15:00-02:00",
    "Vendredi": "15:00-02:00",
    "Samedi": "15:00-02:00",
    "Dimanche": "",
    "Photo": "cristal.jpg (https://dl.airtable.com/cYH2W6IOR0OtPtKbkSzL_cristal.jpg)",
    "Adresse": "163 Avenue de Suffren, 75015 Paris",
    "Latitude": "48.8457869",
    "Longitude": "2.3077324",
    "Id": "86",
    "Vérifié": "checked"
  },
  {
    "Nom": "Brewberry",
    "Lundi": "",
    "Mardi": "15:00-23:00",
    "Mercredi": "15:00-23:00",
    "Jeudi": "15:00-23:00",
    "Vendredi": "15:00-23:00",
    "Samedi": "15:00-23:00",
    "Dimanche": "15:00-21:00",
    "Photo": "IMG_1830.JPG (https://dl.airtable.com/0O9cmzFHQty5bOSeBdu7_IMG_1830.JPG)",
    "Adresse": "18 Rue du Pot de Fer, 75005 Paris",
    "Latitude": "48.8429735",
    "Longitude": "2.3463643",
    "Id": "87",
    "Vérifié": "checked"
  },
  {
    "Nom": "Les Prolongations",
    "Lundi": "09:00-02:00",
    "Mardi": "09:00-02:00",
    "Mercredi": "06:00-02:00",
    "Jeudi": "06:00-02:00",
    "Vendredi": "06:00-02:00",
    "Samedi": "06:00-02:00",
    "Dimanche": "06:00-02:00",
    "Photo": "5076b6dc601154.90885972.page_slider_8.jpg (https://dl.airtable.com/q9AtdsY4Tc2Mevnr3a28_5076b6dc601154.90885972.page_slider_8.jpg)",
    "Adresse": "76 Boulevard de Grenelle, 75015 Paris",
    "Latitude": "48.8501887",
    "Longitude": "2.2914647",
    "Id": "89",
    "Vérifié": "checked"
  },
  {
    "Nom": "Rosa Bonheur sur Seine",
    "Lundi": "",
    "Mardi": "",
    "Mercredi": "12:00-00:00",
    "Jeudi": "12:00-1:30",
    "Vendredi": "12:00-1:30",
    "Samedi": "12:00-1:30",
    "Dimanche": "11:30-22:00",
    "Photo": "rosabonheursurseine.jpg (https://dl.airtable.com/ewthWAkvSxmW8FxSPwwq_rosabonheursurseine.jpg)",
    "Adresse": "Port des Invalides, Quai d'Orsay, 75007 Paris",
    "Latitude": "48.8633276",
    "Longitude": "2.3133218",
    "Id": "90",
    "Vérifié": "checked"
  },
  {
    "Nom": "The Club",
    "Lundi": "16:00-2:00",
    "Mardi": "16:00-2:00",
    "Mercredi": "16:00-2:00",
    "Jeudi": "16:00-2:00",
    "Vendredi": "16:00-2:00",
    "Samedi": "16:00-2:00",
    "Dimanche": "",
    "Photo": "theclub.png (https://dl.airtable.com/Tx7cKoqQoKvEatmuUC52_theclub.png)",
    "Adresse": "24 Rue Surcouf, 75007 Paris",
    "Latitude": "48.8604105",
    "Longitude": "2.3072063",
    "Id": "91",
    "Vérifié": "checked"
  },
  {
    "Nom": "The Frog & Princess",
    "Lundi": "17:30-1:00",
    "Mardi": "17:30-1:00",
    "Mercredi": "17:30-1:00",
    "Jeudi": "17:30-2:00",
    "Vendredi": "17:30-2:00",
    "Samedi": "12:00-2:00",
    "Dimanche": "12:00-1:00",
    "Photo": "thefrogprincess.png (https://dl.airtable.com/fLRw8FbzSyCbigh6nRoI_thefrogprincess.png)",
    "Adresse": "9 Rue Princesse, 75006 Paris",
    "Latitude": "48.8522805",
    "Longitude": "2.3324949",
    "Id": "92",
    "Vérifié": "checked"
  },
  {
    "Nom": "Little Red Door",
    "Lundi": "18:00-2:00",
    "Mardi": "18:00-2:00",
    "Mercredi": "18:00-2:00",
    "Jeudi": "18:00-2:00",
    "Vendredi": "18:00-2:00",
    "Samedi": "18:00-3:00",
    "Dimanche": "18:00-2:00",
    "Photo": "thelittlereddoor.png (https://dl.airtable.com/9tkrwYKlQlKMQTXrKeDG_thelittlereddoor.png)",
    "Adresse": "60 Rue Charlot, 75003 Paris",
    "Latitude": "48.8637397",
    "Longitude": "2.3614976",
    "Id": "93",
    "Vérifié": "checked"
  },
  {
    "Nom": "Experimental Cocktail Club",
    "Lundi": "19:00-2:00",
    "Mardi": "19:00-2:00",
    "Mercredi": "19:00-2:00",
    "Jeudi": "19:00-2:00",
    "Vendredi": "19:00-4:00",
    "Samedi": "19:00-4:00",
    "Dimanche": "20:00-2:00",
    "Photo": "experimentalcocktailclub.png (https://dl.airtable.com/VtjuB9oqRny2eF2I9Zx4_experimentalcocktailclub.png)",
    "Adresse": "37 Rue Saint-Sauveur, 75002 Paris",
    "Latitude": "48.8660675",
    "Longitude": "2.3460723",
    "Id": "94",
    "Vérifié": "checked"
  },
  {
    "Nom": "Compagnie des Vins Surnaturels",
    "Lundi": "18:00-2:00",
    "Mardi": "18:00-2:00",
    "Mercredi": "18:00-2:00",
    "Jeudi": "18:00-2:00",
    "Vendredi": "18:00-2:00",
    "Samedi": "18:00-2:00",
    "Dimanche": "18:00-2:00",
    "Photo": "lacompagniedesvinssurnaturels.jpg (https://dl.airtable.com/RkXoRon0SlqC6koE6V9U_lacompagniedesvinssurnaturels.jpg)",
    "Adresse": "7 Rue Lobineau, 75006 Paris",
    "Latitude": "48.8516172",
    "Longitude": "2.3340847",
    "Id": "95",
    "Vérifié": "checked"
  },
  {
    "Nom": "Sputnik",
    "Lundi": "17:00-2:00",
    "Mardi": "17:00-2:00",
    "Mercredi": "17:00-2:00",
    "Jeudi": "17:00-2:00",
    "Vendredi": "14:00-2:00",
    "Samedi": "14:00-2:00",
    "Dimanche": "16:00-00:00",
    "Photo": "sputnik.jpg (https://dl.airtable.com/OBEMX38RWq65UUQSFCSR_sputnik.jpg)",
    "Adresse": "14 rue de la Butte aux Cailles, 75013 Paris",
    "Latitude": "48.82796",
    "Longitude": "2.3488228",
    "Id": "96",
    "Vérifié": "checked"
  },
  {
    "Nom": "Le Merle Moqueur",
    "Lundi": "17:00-2:00",
    "Mardi": "17:00-2:00",
    "Mercredi": "17:00-2:00",
    "Jeudi": "17:00-2:00",
    "Vendredi": "17:00-2:00",
    "Samedi": "17:00-2:00",
    "Dimanche": "17:00-2:00",
    "Photo": "lemerlemoqueur.jpg (https://dl.airtable.com/D44yPsj4QqivNgATUIyY_lemerlemoqueur.jpg)",
    "Adresse": "11 Rue De La Butte Aux Cailles, 75013 Paris",
    "Latitude": "48.8277254",
    "Longitude": "2.3482142",
    "Id": "97",
    "Vérifié": "checked"
  },
  {
    "Nom": "Inside Bar",
    "Lundi": "",
    "Mardi": "17:00-2:00",
    "Mercredi": "17:00-2:00",
    "Jeudi": "17:00-2:00",
    "Vendredi": "17:00-2:00",
    "Samedi": "18:00-2:00",
    "Dimanche": "",
    "Photo": "inside-bar.jpg (https://dl.airtable.com/H4UqfyelRuSz2eqPher1_inside-bar.jpg)",
    "Adresse": "14 Rue Claude Tillier, 75012 Paris",
    "Latitude": "48.8480775",
    "Longitude": "2.3858853",
    "Id": "98",
    "Vérifié": "checked"
  },
  {
    "Nom": "La P'tite Mousse",
    "Lundi": "",
    "Mardi": "15:00-22:00",
    "Mercredi": "17:00-22:00",
    "Jeudi": "15:00-22:00",
    "Vendredi": "15:00-22:00",
    "Samedi": "13:00-22:00",
    "Dimanche": "",
    "Photo": "26804516_2489313464627547_6987249788738927779_n.jpg?_nc_cat=0&oh=a4ceb5921d273ac5c8f63b6c6585d805&oe=5B5DB79D (https://dl.airtable.com/pqrG34krSUKCabP1PqFe_26804516_2489313464627547_6987249788738927779_n.jpg%3F_nc_cat%3D0%26oh%3Da4ceb5921d273ac5c8f63b6c6585d805%26oe%3D5B5DB79D)",
    "Adresse": "29 Rue de Douai, 75009 Paris",
    "Latitude": "48.8824706",
    "Longitude": "2.3305275",
    "Id": "99",
    "Vérifié": "checked"
  },
  {
    "Nom": "Le Trente Neuf",
    "Lundi": "12:00-15:0/18:00-23:00",
    "Mardi": "12:00-15:0/18:00-23:00",
    "Mercredi": "12:00-15:0/18:00-23:00",
    "Jeudi": "12:00-15:0/18:00-23:00",
    "Vendredi": "12:00-15:0/18:00-23:00",
    "Samedi": "12:00-23:00",
    "Dimanche": "12:00-23:00",
    "Photo": "le-trente-neuf-vue-de-l-exterieur-b0ec8.jpg (https://dl.airtable.com/F2UeJSCFRvmu9Mmlueke_le-trente-neuf-vue-de-l-exterieur-b0ec8.jpg)",
    "Adresse": "39 Rue Beaubourg, 75003 Paris",
    "Latitude": "48.8621693",
    "Longitude": "2.3537005",
    "Id": "100",
    "Vérifié": "checked"
  },
  {
    "Nom": "Les Petits Céleste",
    "Lundi": "",
    "Mardi": "17:30-2:00",
    "Mercredi": "17:30-2:00",
    "Jeudi": "17:30-2:00",
    "Vendredi": "17:30-2:00",
    "Samedi": "17:30-2:00",
    "Dimanche": "",
    "Photo": "petitscelestes-726x400.jpg (https://dl.airtable.com/3Dcki1fUQQ6mxbpBo81X_petitscelestes-726x400.jpg)",
    "Adresse": "52 Rue Richard Lenoir, 75011 Paris\n\n",
    "Latitude": "48.8566742",
    "Longitude": "2.3789857",
    "Id": "102",
    "Vérifié": "checked"
  },
  {
    "Nom": "Plan B",
    "Lundi": "16:30-0:00",
    "Mardi": "16:30-0:00",
    "Mercredi": "16:30-2:00",
    "Jeudi": "16:30-2:00",
    "Vendredi": "16:30-2:00",
    "Samedi": "16:30-2:00",
    "Dimanche": "",
    "Photo": "19092638_1909690515969781_4478932395216742432_o.jpg?_nc_cat=0&oh=6999a7e80d277c8ebf1357aee13180a1&oe=5B990545 (https://dl.airtable.com/asOuLBtHTDai4cM840XC_19092638_1909690515969781_4478932395216742432_o.jpg%3F_nc_cat%3D0%26oh%3D6999a7e80d277c8ebf1357aee13180a1%26oe%3D5B990545)",
    "Adresse": "28 rue de Lourmel",
    "Latitude": "48.8489659",
    "Longitude": "2.2885123",
    "Id": "103",
    "Vérifié": "checked"
  },
  {
    "Nom": "Le Commerce Café",
    "Lundi": "6:00-00:00",
    "Mardi": "6:00-00:00",
    "Mercredi": "6:00-00:00",
    "Jeudi": "6:00-00:00",
    "Vendredi": "6:00-00:00",
    "Samedi": "6:00-00:00",
    "Dimanche": "6:00-00:00",
    "Photo": "commerce-cafe-ouv.jpg (https://dl.airtable.com/C6HS3QpQRh2h7t6sqZkG_commerce-cafe-ouv.jpg)",
    "Adresse": "80 rue du commerce, 75015 Paris",
    "Latitude": "48.844952",
    "Longitude": "2.2917639",
    "Id": "104",
    "Vérifié": "checked"
  },
  {
    "Nom": "À la Tour Eiffel",
    "Lundi": "6:30-01:00",
    "Mardi": "6:30-01:00",
    "Mercredi": "6:30-01:00",
    "Jeudi": "6:30-01:00",
    "Vendredi": "6:30-01:00",
    "Samedi": "6:30-01:00",
    "Dimanche": "6:30-00:00",
    "Photo": "a-la-tour-eiffel-1.jpg (https://dl.airtable.com/fjkfLuTTzuJxesECsFvX_a-la-tour-eiffel-1.jpg)",
    "Adresse": "96 rue du commerce, 75015 Paris",
    "Latitude": "48.843807",
    "Longitude": "2.2907734",
    "Id": "105",
    "Vérifié": "checked"
  },
  {
    "Nom": "3 Ducks Hostel Bar",
    "Lundi": "14:00-1:30",
    "Mardi": "14:00-1:30",
    "Mercredi": "14:00-1:30",
    "Jeudi": "14:00-1:30",
    "Vendredi": "14:00-1:30",
    "Samedi": "14:00-1:30",
    "Dimanche": "14:00-1:30",
    "Photo": "28.jpg (https://dl.airtable.com/K3sfvEodSeaotAajKIcT_28.jpg)",
    "Adresse": "6 place Etienne Pernet, 75015 Paris",
    "Latitude": "48.8435559",
    "Longitude": "2.290325",
    "Id": "106",
    "Vérifié": "checked"
  },
  {
    "Nom": "Comptoir Moderne",
    "Lundi": "16:00-00:00",
    "Mardi": "16:00-00:00",
    "Mercredi": "16:00-00:00",
    "Jeudi": "16:00-00:00",
    "Vendredi": "16:00-02:00",
    "Samedi": "11:00-02:00",
    "Dimanche": "11:00-00:00",
    "Photo": "comptoir-moderne.jpg (https://dl.airtable.com/63u7mYhmR6O6Gijd7uKW_comptoir-moderne.jpg)",
    "Adresse": "26 rue de La Croix Nivert, 75015 Paris",
    "Latitude": "48.8467582",
    "Longitude": "2.2974596",
    "Id": "107",
    "Vérifié": "checked"
  },
  {
    "Nom": "Le Loti",
    "Lundi": "",
    "Mardi": "18:00–02:00",
    "Mercredi": "18:00–02:00",
    "Jeudi": "18:00–02:00",
    "Vendredi": "18:00–02:00",
    "Samedi": "18:00–02:00",
    "Dimanche": "",
    "Photo": "1500288129.jpg (https://dl.airtable.com/163GEXytRz6sL0aXw23L_1500288129.jpg)",
    "Adresse": "53 Rue Jean-Pierre Timbaud, 75011 Paris",
    "Latitude": "48.8668635",
    "Longitude": "2.3720378",
    "Id": "108",
    "Vérifié": "checked"
  }
]